[
  {
    "pincode": 411001,
    "found": true,
    "mainArea": "Pune",
    "district": "Pune",
    "state": "Maharashtra",
    "postOffices": [
      {
        "name": "C D A (O)",
        "branchType": "Sub Post Office",
        "deliveryStatus": "Non-Delivery",
        "district": "Pune",
        "state": "Maharashtra",
        "division": "Pune City East",
        "region": "Pune",
        "latitude": null,
        "longitude": null,
        "coordinates": null
      },
      {
        "name": "Dr.B.A. Chowk",
        "branchType": "Sub Post Office",
        "deliveryStatus": "Non-Delivery",
        "district": "Pune",
        "state": "Maharashtra",
        "division": "Pune City East",
        "region": "Pune",
        "latitude": null,
        "longitude": null,
        "coordinates": [
          18.5983193,
          73.7679916
        ]
      },
      {
        "name": "Ghorpuri Bazar",
        "branchType": "Sub Post Office",
        "deliveryStatus": "Non-Delivery",
        "district": "Pune",
        "state": "Maharashtra",
        "division": "Pune City East",
        "region": "Pune",
        "latitude": null,
        "longitude": null,
        "coordinates": null
      },
      {
        "name": "N.W. College",
        "branchType": "Sub Post Office",
        "deliveryStatus": "Non-Delivery",
        "district": "Pune",
        "state": "Maharashtra",
        "division": "Pune City East",
        "region": "Pune",
        "latitude": null,
        "longitude": null,
        "coordinates": null
      },
      {
        "name": "Pune",
        "branchType": "Head Post Office",
        "deliveryStatus": "Delivery",
        "district": "Pune",
        "state": "Maharashtra",
        "division": "Pune City East",
        "region": "Pune",
        "latitude": null,
        "longitude": null,
        "coordinates": [
          18.5213738,
          73.8545071
        ]
      },
      {
        "name": "Pune Cantt East",
        "branchType": "Sub Post Office",
        "deliveryStatus": "Non-Delivery",
        "district": "Pune",
        "state": "Maharashtra",
        "division": "Pune City East",
        "region": "Pune",
        "latitude": null,
        "longitude": null,
        "coordinates": null
      },
      {
        "name": "Pune New Bazar",
        "branchType": "Sub Post Office",
        "deliveryStatus": "Non-Delivery",
        "district": "Pune",
        "state": "Maharashtra",
        "division": "Pune City East",
        "region": "Pune",
        "latitude": null,
        "longitude": null,
        "coordinates": null
      },
      {
        "name": "Sachapir Street",
        "branchType": "Sub Post Office",
        "deliveryStatus": "Non-Delivery",
        "district": "Pune",
        "state": "Maharashtra",
        "division": "Pune City East",
        "region": "Pune",
        "latitude": null,
        "longitude": null,
        "coordinates": [
          18.5157817,
          73.8751182
        ]
      }
    ]
  },
  {
    "pincode": 411002,
    "found": true,
    "mainArea": "Pune",
    "district": "Pune",
    "state": "Maharashtra",
    "postOffices": [
      {
        "name": "Bajirao Road",
        "branchType": "Sub Post Office",
        "deliveryStatus": "Non-Delivery",
        "district": "Pune",
        "state": "Maharashtra",
        "division": "Pune City West",
        "region": "Pune",
        "latitude": null,
        "longitude": null,
        "coordinates": [
          18.5086308,
          73.8537068
        ]
      },
      {
        "name": "Kapad Ganj",
        "branchType": "Sub Post Office",
        "deliveryStatus": "Non-Delivery",
        "district": "Pune",
        "state": "Maharashtra",
        "division": "Pune City West",
        "region": "Pune",
        "latitude": null,
        "longitude": null,
        "coordinates": null
      },
      {
        "name": "Nana Peth",
        "branchType": "Sub Post Office",
        "deliveryStatus": "Non-Delivery",
        "district": "Pune",
        "state": "Maharashtra",
        "division": "Pune City West",
        "region": "Pune",
        "latitude": null,
        "longitude": null,
        "coordinates": [
          18.5183964,
          73.8563077
        ]
      },
      {
        "name": "Pune City",
        "branchType": "Head Post Office",
        "deliveryStatus": "Delivery",
        "district": "Pune",
        "state": "Maharashtra",
        "division": "Pune City West",
        "region": "Pune",
        "latitude": null,
        "longitude": null,
        "coordinates": [
          18.5213738,
          73.8545071
        ]
      },
      {
        "name": "Raviwar Peth",
        "branchType": "Sub Post Office",
        "deliveryStatus": "Non-Delivery",
        "district": "Pune",
        "state": "Maharashtra",
        "division": "Pune City West",
        "region": "Pune",
        "latitude": null,
        "longitude": null,
        "coordinates": null
      },
      {
        "name": "Shukrawar Peth (Pune)",
        "branchType": "Sub Post Office",
        "deliveryStatus": "Non-Delivery",
        "district": "Pune",
        "state": "Maharashtra",
        "division": "Pune City West",
        "region": "Pune",
        "latitude": null,
        "longitude": null,
        "coordinates": [
          18.5211803,
          73.8413
        ]
      }
    ]
  },
  {
    "pincode": 411003,
    "found": true,
    "mainArea": "Pune",
    "district": "Pune",
    "state": "Maharashtra",
    "postOffices": [
      {
        "name": "Ammunition Factory Khadki",
        "branchType": "Sub Post Office",
        "deliveryStatus": "Non-Delivery",
        "district": "Pune",
        "state": "Maharashtra",
        "division": "Pune City East",
        "region": "Pune",
        "latitude": null,
        "longitude": null,
        "coordinates": null
      },
      {
        "name": "East Khadki",
        "branchType": "Sub Post Office",
        "deliveryStatus": "Non-Delivery",
        "district": "Pune",
        "state": "Maharashtra",
        "division": "Pune City East",
        "region": "Pune",
        "latitude": null,
        "longitude": null,
        "coordinates": null
      },
      {
        "name": "H.E. Factory",
        "branchType": "Sub Post Office",
        "deliveryStatus": "Non-Delivery",
        "district": "Pune",
        "state": "Maharashtra",
        "division": "Pune City East",
        "region": "Pune",
        "latitude": null,
        "longitude": null,
        "coordinates": null
      },
      {
        "name": "Khadki",
        "branchType": "Sub Post Office",
        "deliveryStatus": "Delivery",
        "district": "Pune",
        "state": "Maharashtra",
        "division": "Pune City East",
        "region": "Pune",
        "latitude": null,
        "longitude": null,
        "coordinates": [
          18.5681753,
          73.8507787
        ]
      },
      {
        "name": "Khadki Bazar",
        "branchType": "Sub Post Office",
        "deliveryStatus": "Non-Delivery",
        "district": "Pune",
        "state": "Maharashtra",
        "division": "Pune City East",
        "region": "Pune",
        "latitude": null,
        "longitude": null,
        "coordinates": [
          18.5628064,
          73.8215827
        ]
      }
    ]
  },
  {
    "pincode": 411004,
    "found": true,
    "mainArea": "Pune",
    "district": "Pune",
    "state": "Maharashtra",
    "postOffices": [
      {
        "name": "A.R. Shala",
        "branchType": "Sub Post Office",
        "deliveryStatus": "Non-Delivery",
        "district": "Pune",
        "state": "Maharashtra",
        "division": "Pune City West",
        "region": "Pune",
        "latitude": null,
        "longitude": null,
        "coordinates": null
      },
      {
        "name": "Deccan Gymkhana",
        "branchType": "Sub Post Office",
        "deliveryStatus": "Delivery",
        "district": "Pune",
        "state": "Maharashtra",
        "division": "Pune City West",
        "region": "Pune",
        "latitude": null,
        "longitude": null,
        "coordinates": [
          18.5158926,
          73.84116
        ]
      },
      {
        "name": "Film Institute",
        "branchType": "Sub Post Office",
        "deliveryStatus": "Non-Delivery",
        "district": "Pune",
        "state": "Maharashtra",
        "division": "Pune City West",
        "region": "Pune",
        "latitude": null,
        "longitude": null,
        "coordinates": [
          18.513308,
          73.8267363
        ]
      }
    ]
  },
  {
    "pincode": 411005,
    "found": true,
    "mainArea": "Pune",
    "district": "Pune",
    "state": "Maharashtra",
    "postOffices": [
      {
        "name": "Congress House Road",
        "branchType": "Sub Post Office",
        "deliveryStatus": "Non-Delivery",
        "district": "Pune",
        "state": "Maharashtra",
        "division": "Pune City West",
        "region": "Pune",
        "latitude": null,
        "longitude": null,
        "coordinates": null
      },
      {
        "name": "S.S.C.Exam Board",
        "branchType": "Sub Post Office",
        "deliveryStatus": "Non-Delivery",
        "district": "Pune",
        "state": "Maharashtra",
        "division": "Pune City West",
        "region": "Pune",
        "latitude": null,
        "longitude": null,
        "coordinates": null
      },
      {
        "name": "Shivajinagar",
        "branchType": "Head Post Office",
        "deliveryStatus": "Non-Delivery",
        "district": "Pune",
        "state": "Maharashtra",
        "division": "Pune Moffusil",
        "region": "Pune",
        "latitude": null,
        "longitude": null,
        "coordinates": [
          18.5325915,
          73.8513115
        ]
      },
      {
        "name": "Shivajinagar (Pune)",
        "branchType": "Sub Post Office",
        "deliveryStatus": "Delivery",
        "district": "Pune",
        "state": "Maharashtra",
        "division": "Pune City West",
        "region": "Pune",
        "latitude": null,
        "longitude": null,
        "coordinates": [
          18.5211803,
          73.8413
        ]
      }
    ]
  },
  {
    "pincode": 411006,
    "found": true,
    "mainArea": "Pune",
    "district": "Pune",
    "state": "Maharashtra",
    "postOffices": [
      {
        "name": "Yerwada",
        "branchType": "Sub Post Office",
        "deliveryStatus": "Delivery",
        "district": "Pune",
        "state": "Maharashtra",
        "division": "Pune City East",
        "region": "Pune",
        "latitude": null,
        "longitude": null,
        "coordinates": [
          18.5453173,
          73.8866882
        ]
      },
      {
        "name": "Yerwada T.S.",
        "branchType": "Sub Post Office",
        "deliveryStatus": "Non-Delivery",
        "district": "Pune",
        "state": "Maharashtra",
        "division": "Pune City East",
        "region": "Pune",
        "latitude": null,
        "longitude": null,
        "coordinates": null
      }
    ]
  },
  {
    "pincode": 411007,
    "found": true,
    "mainArea": "Pune",
    "district": "Pune",
    "state": "Maharashtra",
    "postOffices": [
      {
        "name": "Aundh",
        "branchType": "Branch Post Office",
        "deliveryStatus": "Non-Delivery",
        "district": "Pune",
        "state": "Maharashtra",
        "division": "Pune City West",
        "region": "Pune",
        "latitude": null,
        "longitude": null,
        "coordinates": [
          18.5618834,
          73.8101957
        ]
      },
      {
        "name": "Aundh T.S.",
        "branchType": "Sub Post Office",
        "deliveryStatus": "Non-Delivery",
        "district": "Pune",
        "state": "Maharashtra",
        "division": "Pune City West",
        "region": "Pune",
        "latitude": null,
        "longitude": null,
        "coordinates": null
      },
      {
        "name": "Ganeshkhind",
        "branchType": "Sub Post Office",
        "deliveryStatus": "Delivery",
        "district": "Pune",
        "state": "Maharashtra",
        "division": "Pune City West",
        "region": "Pune",
        "latitude": null,
        "longitude": null,
        "coordinates": [
          18.549946,
          73.8207947
        ]
      }
    ]
  },
  {
    "pincode": 411008,
    "found": true,
    "mainArea": "Pune",
    "district": "Pune",
    "state": "Maharashtra",
    "postOffices": [
      {
        "name": "Baner Road",
        "branchType": "Sub Post Office",
        "deliveryStatus": "Non-Delivery",
        "district": "Pune",
        "state": "Maharashtra",
        "division": "Pune City West",
        "region": "Pune",
        "latitude": null,
        "longitude": null,
        "coordinates": [
          18.5616176,
          73.7851265
        ]
      },
      {
        "name": "N.C.L. Pune",
        "branchType": "Sub Post Office",
        "deliveryStatus": "Delivery",
        "district": "Pune",
        "state": "Maharashtra",
        "division": "Pune City West",
        "region": "Pune",
        "latitude": null,
        "longitude": null,
        "coordinates": null
      }
    ]
  },
  {
    "pincode": 411009,
    "found": true,
    "mainArea": "Pune",
    "district": "Pune",
    "state": "Maharashtra",
    "postOffices": [
      {
        "name": "Parvati",
        "branchType": "Sub Post Office",
        "deliveryStatus": "Delivery",
        "district": "Pune",
        "state": "Maharashtra",
        "division": "Pune City West",
        "region": "Pune",
        "latitude": null,
        "longitude": null,
        "coordinates": [
          18.4972821,
          73.8469173
        ]
      },
      {
        "name": "Parvati Gaon",
        "branchType": "Sub Post Office",
        "deliveryStatus": "Non-Delivery",
        "district": "Pune",
        "state": "Maharashtra",
        "division": "Pune City West",
        "region": "Pune",
        "latitude": null,
        "longitude": null,
        "coordinates": null
      }
    ]
  }
]